{
"type": "FeatureCollection",
"name": "Potreros de la Comunidad",
"crs": { "type": "name", "properties": { "name": "urn:ogc:def:crs:OGC:1.3:CRS84" } },
"features": [
{ "type": "Feature", "properties": { "CGM": "Santa Catalina", "Potrero": "Club Monteverde Calabaza", "Dimensiones": "F7", "Direccion": "Calabaza - Santa Catalina", "Lat_Long": "-34.72878262226603, -58.48182257116436", "Tipo_de_Intervenci__n": "Ampliación y colocación de luminaria.", "Presupuesto__SP_": "$9.368.500", "Informaci__n_Adicional": "Potrero construido en 2024." }, "geometry": { "type": "Point", "coordinates": [ -58.4818225711644, -34.728782622266003, 0.0 ] } },
{ "type": "Feature", "properties": { "CGM": "Budge", "Potrero": "Club 20 de Junio", "Dimensiones": "F5 Y F7", "Direccion": "Antonio Machado & Epecuén, Budge", "Lat_Long": "-34.724425503253634, -58.45778642034282", "Tipo_de_Intervenci__n": "Equipamiento con material deportivo y colocación de luces.", "Presupuesto__SP_": "N/A", "Informaci__n_Adicional": "N/A" }, "geometry": { "type": "Point", "coordinates": [ -58.457786420342799, -34.724425503253599, 0.0 ] } },
{ "type": "Feature", "properties": { "CGM": "Fiorito", "Potrero": "Scholas Ocurrentes", "Dimensiones": "", "Direccion": "Camino de la Ribera Sur 418, Fiorito", "Lat_Long": "-34.69730296055224, -58.45332956266043", "Tipo_de_Intervenci__n": "Colocación de arcos y luminarias.", "Presupuesto__SP_": "N/A", "Informaci__n_Adicional": "N/A" }, "geometry": { "type": "Point", "coordinates": [ -58.4533295626604, -34.6973029605522, 0.0 ] } },
{ "type": "Feature", "properties": { "CGM": "Albertina", "Potrero": "Parque de Albertina", "Dimensiones": "F7", "Direccion": "Homero 2601, Albertina", "Lat_Long": "-34.73984741661553, -58.45729271338188", "Tipo_de_Intervenci__n": "Limpieza, nivelación de terreno y equipamiento.", "Presupuesto__SP_": "$31.000.000", "Informaci__n_Adicional": "N/A" }, "geometry": { "type": "Point", "coordinates": [ -58.457292713381896, -34.739847416615497, 0.0 ] } },
{ "type": "Feature", "properties": { "CGM": "Llavallol", "Potrero": "Parque de Llavallol", "Dimensiones": "F11", "Direccion": "BV. Santa Catalina 302, Llavallol", "Lat_Long": "-34.79490807930429, -58.436759822510574", "Tipo_de_Intervenci__n": "Limpieza, nivelación de terreno y equipamiento.", "Presupuesto__SP_": "$44.000.000 (SP 100/24)", "Informaci__n_Adicional": "N/A" }, "geometry": { "type": "Point", "coordinates": [ -58.436759822510602, -34.7949080793043, 0.0 ] } },
{ "type": "Feature", "properties": { "CGM": "Llavallol", "Potrero": "El Campanario", "Dimensiones": "F5", "Direccion": "Llavallol", "Lat_Long": "-34.804665704773605, -58.42716777798867", "Tipo_de_Intervenci__n": "Nivelación de terreno y colocación de arcos.", "Presupuesto__SP_": "N/A", "Informaci__n_Adicional": "No tiene SP. Nivelado con tierra de jornada comunitaria. Empresa Servilum movió columnas y cambió luminarias." }, "geometry": { "type": "Point", "coordinates": [ -58.4271677779887, -34.804665704773598, 0.0 ] } },
{ "type": "Feature", "properties": { "CGM": "Fiorito", "Potrero": "Potrero en EES 11", "Dimensiones": "F5", "Direccion": "Mario Bravo y Pilcomayo, Fiorito", "Lat_Long": "-34.70640147202201, -58.442391897847386", "Tipo_de_Intervenci__n": "Limpieza, nivelación de terreno y colocación de bancos.", "Presupuesto__SP_": "$33.556.461 (SP 10)", "Informaci__n_Adicional": "Cooperativa Gauchito Gil. En etapa final: falta alambrado perimetral y limpieza." }, "geometry": { "type": "Point", "coordinates": [ -58.442391897847401, -34.706401472022002, 0.0 ] } },
{ "type": "Feature", "properties": { "CGM": "San Jose", "Potrero": "Parque Caaguazú", "Dimensiones": "", "Direccion": "Caaguazú 500, San José - Temperley", "Lat_Long": "-34.74612682704337, -58.34518644668505", "Tipo_de_Intervenci__n": "Nivelación de terreno y colocación de arcos.", "Presupuesto__SP_": "N/A", "Informaci__n_Adicional": "N/A" }, "geometry": { "type": "Point", "coordinates": [ -58.345186446684998, -34.746126827043398, 0.0 ] } },
{ "type": "Feature", "properties": { "CGM": "Fiorito", "Potrero": "La Herradura", "Dimensiones": "F7", "Direccion": "Plumerillo y La Rivera, Fiorito", "Lat_Long": "-34.6938535342932, -58.450686480371985", "Tipo_de_Intervenci__n": "Nivelación de terreno, colocación de bancos, arcos, cerco perimetral y alambrado.", "Presupuesto__SP_": "$54.999.980 (SP 84)", "Informaci__n_Adicional": "Próximo a iniciar. Inició limpieza, semana del 25/08 inicia movimiento de suelo." }, "geometry": { "type": "Point", "coordinates": [ -58.450686480371999, -34.693853534293197, 0.0 ] } },
{ "type": "Feature", "properties": { "CGM": "Santa Catalina", "Potrero": "Barrio Obrero", "Dimensiones": "F11", "Direccion": "Calle 2 y 104, Santa Catalina", "Lat_Long": "-34.74847230092466, -58.467591416873866", "Tipo_de_Intervenci__n": "Cambio de arcos y luminaria, colocación de bancos de suplentes, alambrado, relleno y nivelación.", "Presupuesto__SP_": "$55.672.977 (SP 83)", "Informaci__n_Adicional": "Cooperativa Minka. Próximo a finalizar." }, "geometry": { "type": "Point", "coordinates": [ -58.467591416873901, -34.748472300924703, 0.0 ] } },
{ "type": "Feature", "properties": { "CGM": "Temperley", "Potrero": "Club Rioplatense", "Dimensiones": "F5", "Direccion": "Baltasar 3551, Temperley", "Lat_Long": "-34.74518177825895, -58.348417662032794", "Tipo_de_Intervenci__n": "Construcción de platea de hormigón.", "Presupuesto__SP_": "$56.473.293 (SP 82)", "Informaci__n_Adicional": "Cooperativa Minka. Trámite iniciado, sin OC. Obra de 10 días una vez iniciada." }, "geometry": { "type": "Point", "coordinates": [ -58.348417662032801, -34.745181778259003, 0.0 ] } },
{ "type": "Feature", "properties": { "CGM": "Llavallol", "Potrero": "Arroyo del Rey", "Dimensiones": "F7", "Direccion": "Unidad Sanitaria S.U.M., Llavallol", "Lat_Long": "-34.80649531707473, -58.41558991716393", "Tipo_de_Intervenci__n": "Construcción desde cero.", "Presupuesto__SP_": "$96.000.000 (con OC)", "Informaci__n_Adicional": "Se realizaron veredas perimetrales e instalación eléctrica. Semana del 25/08 inician trabajos de suelo." }, "geometry": { "type": "Point", "coordinates": [ -58.415589917163899, -34.806495317074699, 0.0 ] } },
{ "type": "Feature", "properties": { "CGM": "Albertina", "Potrero": "Plaza de los Militantes", "Dimensiones": "F5", "Direccion": "Albertina", "Lat_Long": "-34.738913360849345, -58.444148636453754", "Tipo_de_Intervenci__n": "Alisado de playón deportivo.", "Presupuesto__SP_": "N/A", "Informaci__n_Adicional": "Secretaría de Obras Públicas realiza el alisado y Deportes provee arcos, redes y bancos. Se inaugura con la plaza terminada." }, "geometry": { "type": "Point", "coordinates": [ -58.444148636453797, -34.738913360849303, 0.0 ] } },
{ "type": "Feature", "properties": { "CGM": "Fiorito", "Potrero": "Club Los Gauchitos", "Dimensiones": "F11", "Direccion": "Hornos y Chivilcoy", "Lat_Long": "-34.69714319091478, -58.440776837817154", "Tipo_de_Intervenci__n": "Alisado y construcción de perímetro (paredones).", "Presupuesto__SP_": "$54.000.000 (SP 3-114)", "Informaci__n_Adicional": "Cooperativa Pasiano. Nivelación y paredones finalizados, faltan desagües y detalles. Trabajos pendientes." }, "geometry": { "type": "Point", "coordinates": [ -58.440776837817197, -34.697143190914801, 0.0 ] } },
{ "type": "Feature", "properties": { "CGM": "Santa Marta", "Potrero": "Club La Soledad", "Dimensiones": "F5 Y F7", "Direccion": "Club Atlético Soledad, Santa Marta", "Lat_Long": "-34.75322799939751, -58.444784243556356", "Tipo_de_Intervenci__n": "Construcción desde cero.", "Presupuesto__SP_": "$105.000.000", "Informaci__n_Adicional": "Persona jurídica caída. Se tramita la prescripción del dominio en articulación con la SS de Tierras." }, "geometry": { "type": "Point", "coordinates": [ -58.444784243556398, -34.753227999397502, 0.0 ] } },
{ "type": "Feature", "properties": { "CGM": "Fiorito", "Potrero": "Parque Diego Armando Maradona", "Dimensiones": "", "Direccion": "Recondo 1200, Fiorito", "Lat_Long": "-34.713410435014424, -58.44865772032225", "Tipo_de_Intervenci__n": "Construcción de cero.", "Presupuesto__SP_": "N/A", "Informaci__n_Adicional": "Presupuesto salió por OP." }, "geometry": { "type": "Point", "coordinates": [ -58.448657720322302, -34.713410435014403, 0.0 ] } },
{ "type": "Feature", "properties": { "CGM": "Lamadrid", "Potrero": "Villa Amelia", "Dimensiones": "", "Direccion": "", "Lat_Long": "-34.72229655527183, -58.47078008013314", "Tipo_de_Intervenci__n": "Equipamiento con material deportivo.", "Presupuesto__SP_": "$250.00", "Informaci__n_Adicional": "N/A" }, "geometry": { "type": "Point", "coordinates": [ -58.470780080133103, -34.722296555271797, 0.0 ] } },
{ "type": "Feature", "properties": { "CGM": "Parque Baron", "Potrero": "Parque Eva Perón", "Dimensiones": "", "Direccion": "Molina Arrotea y Las Lilas, Parque Baron", "Lat_Long": "-34.76673853508218, -58.43054944158914", "Tipo_de_Intervenci__n": "Construcción de cero.", "Presupuesto__SP_": "$21.204.208", "Informaci__n_Adicional": "N/A" }, "geometry": { "type": "Point", "coordinates": [ -58.4305494415891, -34.766738535082197, 0.0 ] } },
{ "type": "Feature", "properties": { "CGM": "Llavallol", "Potrero": "Parque Llavallol", "Dimensiones": "", "Direccion": "Bv. Santa Catalina 302, Llavallol", "Lat_Long": "-34.79490807930429, -58.436759822510574", "Tipo_de_Intervenci__n": "Construcción de cero.", "Presupuesto__SP_": "$44.413.381", "Informaci__n_Adicional": "N/A" }, "geometry": { "type": "Point", "coordinates": [ -58.436759822510602, -34.7949080793043, 0.0 ] } },
{ "type": "Feature", "properties": { "CGM": "Santa Catalina", "Potrero": "Club Monteverde", "Dimensiones": "", "Direccion": "Calabaza, Santa Catalina", "Lat_Long": "-34.72878262226603, -58.48182257116436", "Tipo_de_Intervenci__n": "Construcción de cero.", "Presupuesto__SP_": "$71.383.738", "Informaci__n_Adicional": "N/A" }, "geometry": { "type": "Point", "coordinates": [ -58.4818225711644, -34.728782622266003, 0.0 ] } },
{ "type": "Feature", "properties": { "CGM": "Lamadrid", "Potrero": "River de Lamadrid", "Dimensiones": "", "Direccion": "Epecuén entre Homero y Euskadi, Budge", "Lat_Long": "-34.72889373129434, -58.46734789144838", "Tipo_de_Intervenci__n": "Material deportivo.", "Presupuesto__SP_": "$250.00", "Informaci__n_Adicional": "N/A" }, "geometry": { "type": "Point", "coordinates": [ -58.467347891448398, -34.728893731294299, 0.0 ] } },
{ "type": "Feature", "properties": { "CGM": "Fiorito", "Potrero": "Club Estrella", "Dimensiones": "", "Direccion": "Larrazábal 2909, Fiorito", "Lat_Long": "-34.69843280463237, -58.44348052929802", "Tipo_de_Intervenci__n": "Intervenciones.", "Presupuesto__SP_": "N/A", "Informaci__n_Adicional": "Ejecutó Cultura, sin presupuesto." }, "geometry": { "type": "Point", "coordinates": [ -58.443480529298, -34.698432804632397, 0.0 ] } },
{ "type": "Feature", "properties": { "CGM": "Albertina", "Potrero": "Club General Paz", "Dimensiones": "", "Direccion": "Itatí y Carriego", "Lat_Long": "-34.73250728790543, -58.45679113566934", "Tipo_de_Intervenci__n": "Material deportivo.", "Presupuesto__SP_": "$250.00", "Informaci__n_Adicional": "N/A" }, "geometry": { "type": "Point", "coordinates": [ -58.456791135669299, -34.732507287905399, 0.0 ] } },
{ "type": "Feature", "properties": { "CGM": "Albertina", "Potrero": "Club Sarmiento", "Dimensiones": "", "Direccion": "Punta Alta 49", "Lat_Long": "-34.74492186720855, -58.451451220292455", "Tipo_de_Intervenci__n": "Material deportivo.", "Presupuesto__SP_": "$250.00", "Informaci__n_Adicional": "N/A" }, "geometry": { "type": "Point", "coordinates": [ -58.451451220292498, -34.744921867208497, 0.0 ] } },
{ "type": "Feature", "properties": { "CGM": "Santa Catalina", "Potrero": "Guardianes de Homero Manzi", "Dimensiones": "", "Direccion": "Homero Manzi y Cabo Caceres, Santa Catalina", "Lat_Long": "-34.736119538442544, -58.47317852904676", "Tipo_de_Intervenci__n": "Intervenciones.", "Presupuesto__SP_": "N/A", "Informaci__n_Adicional": "Sin ejecución de presupuesto." }, "geometry": { "type": "Point", "coordinates": [ -58.473178529046798, -34.736119538442502, 0.0 ] } },
{ "type": "Feature", "properties": { "CGM": "Banfield", "Potrero": "Villa Niza", "Dimensiones": "", "Direccion": "Monteagudo y Gutierrez ", "Lat_Long": "-34.74538303140085, -58.42279372036234", "Tipo_de_Intervenci__n": "Pintada y luces.", "Presupuesto__SP_": "$250.00", "Informaci__n_Adicional": "N/A" }, "geometry": { "type": "Point", "coordinates": [ -58.4227937203623, -34.745383031400799, 0.0 ] } },
{ "type": "Feature", "properties": { "CGM": "Temperley", "Potrero": "Club El Fortín", "Dimensiones": "", "Direccion": "Quilmes y Baigorria, Temperley", "Lat_Long": "-34.76887514748045, -58.36398152219816", "Tipo_de_Intervenci__n": "Material deportivo.", "Presupuesto__SP_": "$250.00", "Informaci__n_Adicional": "N/A" }, "geometry": { "type": "Point", "coordinates": [ -58.363981522198202, -34.7688751474805, 0.0 ] } }
]
}
