{
"type": "FeatureCollection",
"name": "seguridad_Lomas de Zamora",
"crs": { "type": "name", "properties": { "name": "urn:ogc:def:crs:OGC:1.3:CRS84" } },
"features": [
{ "type": "Feature", "properties": { "fid": 22, "OSM_ID": 573407600, "CODE": 2001, "NAME": "Comisaría 20", "LATITUD": -34.80118, "LONGITUD": -58.425558, "IDPROV": "06", "PROV": "Buenos Aires", "IDDPTO": "06490", "Partido": "Lomas de Zamora", "REDCODE": "064904402" }, "geometry": { "type": "Point", "coordinates": [ -58.4255587, -34.8011804 ] } },
{ "type": "Feature", "properties": { "fid": 23, "OSM_ID": 573407628, "CODE": 2001, "NAME": "Comisaría 34", "LATITUD": -34.766321, "LONGITUD": -58.362186, "IDPROV": "06", "PROV": "Buenos Aires", "IDDPTO": "06490", "Partido": "Lomas de Zamora", "REDCODE": "064901609" }, "geometry": { "type": "Point", "coordinates": [ -58.362186, -34.766321 ] } },
{ "type": "Feature", "properties": { "fid": 24, "OSM_ID": 573407650, "CODE": 2001, "NAME": "Comisaría 33", "LATITUD": -34.763596, "LONGITUD": -58.379803, "IDPROV": "06", "PROV": "Buenos Aires", "IDDPTO": "06490", "Partido": "Lomas de Zamora", "REDCODE": "064901906" }, "geometry": { "type": "Point", "coordinates": [ -58.379803, -34.763596 ] } },
{ "type": "Feature", "properties": { "fid": 25, "OSM_ID": 573407824, "CODE": 2001, "NAME": "Comisaría 39", "LATITUD": -34.705953, "LONGITUD": -58.438328, "IDPROV": "06", "PROV": "Buenos Aires", "IDDPTO": "06490", "Partido": "Lomas de Zamora", "REDCODE": "064900209" }, "geometry": { "type": "Point", "coordinates": [ -58.4383288, -34.7059534 ] } },
{ "type": "Feature", "properties": { "fid": 105, "OSM_ID": 1715389993, "CODE": 2001, "NAME": "Comisaría 3era.", "LATITUD": -34.778396, "LONGITUD": -58.395167, "IDPROV": "06", "PROV": "Buenos Aires", "IDDPTO": "06490", "Partido": "Lomas de Zamora", "REDCODE": "064904911" }, "geometry": { "type": "Point", "coordinates": [ -58.3951675, -34.7783968 ] } },
{ "type": "Feature", "properties": { "fid": 168, "OSM_ID": 2643643290, "CODE": 2001, "NAME": "Policía", "LATITUD": -34.765409, "LONGITUD": -58.398414, "IDPROV": "06", "PROV": "Buenos Aires", "IDDPTO": "06490", "Partido": "Lomas de Zamora", "REDCODE": "064902313" }, "geometry": { "type": "Point", "coordinates": [ -58.3984141, -34.7654096 ] } },
{ "type": "Feature", "properties": { "fid": 197, "OSM_ID": 3079357086, "CODE": 2001, "NAME": "Destacamento Banfield Oeste- Policía de Seguridad", "LATITUD": -34.742964, "LONGITUD": -58.411782, "IDPROV": "06", "PROV": "Buenos Aires", "IDDPTO": "06490", "Partido": "Lomas de Zamora", "REDCODE": "064900902" }, "geometry": { "type": "Point", "coordinates": [ -58.4117825, -34.7429644 ] } },
{ "type": "Feature", "properties": { "fid": 208, "OSM_ID": 3219302004, "CODE": 2001, "NAME": "gendarmeria nacional", "LATITUD": -34.771303, "LONGITUD": -58.424174, "IDPROV": "06", "PROV": "Buenos Aires", "IDDPTO": "06490", "Partido": "Lomas de Zamora", "REDCODE": "064902705" }, "geometry": { "type": "Point", "coordinates": [ -58.4241748, -34.771303 ] } },
{ "type": "Feature", "properties": { "fid": 264, "OSM_ID": 3916263451, "CODE": 2001, "NAME": "Policía", "LATITUD": -34.75826, "LONGITUD": -58.399208, "IDPROV": "06", "PROV": "Buenos Aires", "IDDPTO": "06490", "Partido": "Lomas de Zamora", "REDCODE": "064902205" }, "geometry": { "type": "Point", "coordinates": [ -58.3992083, -34.7582602 ] } },
{ "type": "Feature", "properties": { "fid": 347, "OSM_ID": 4656909889, "CODE": 2001, "NAME": "Comisaría 10", "LATITUD": -34.705512, "LONGITUD": -58.460353, "IDPROV": "06", "PROV": "Buenos Aires", "IDDPTO": "06490", "Partido": "Lomas de Zamora", "REDCODE": "064900101" }, "geometry": { "type": "Point", "coordinates": [ -58.4603539, -34.7055124 ] } },
{ "type": "Feature", "properties": { "fid": 462, "OSM_ID": 6040697231, "CODE": 2001, "NAME": "Comisaría 7", "LATITUD": -34.706887, "LONGITUD": -58.459695, "IDPROV": "06", "PROV": "Buenos Aires", "IDDPTO": "06490", "Partido": "Lomas de Zamora", "REDCODE": "064903701" }, "geometry": { "type": "Point", "coordinates": [ -58.459695, -34.706887 ] } },
{ "type": "Feature", "properties": { "fid": 469, "OSM_ID": 6196906962, "CODE": 2001, "NAME": "Comisaría 9º Parque Baron", "LATITUD": -34.766633, "LONGITUD": -58.434039, "IDPROV": "06", "PROV": "Buenos Aires", "IDDPTO": "06490", "Partido": "Lomas de Zamora", "REDCODE": "064902706" }, "geometry": { "type": "Point", "coordinates": [ -58.4340397, -34.7666335 ] } },
{ "type": "Feature", "properties": { "fid": 532, "OSM_ID": 405787334, "CODE": 2001, "NAME": "Policía Federal", "LATITUD": -34.776085, "LONGITUD": -58.396689, "IDPROV": "06", "PROV": "Buenos Aires", "IDDPTO": "06490", "Partido": "Lomas de Zamora", "REDCODE": "064904911" }, "geometry": { "type": "Point", "coordinates": [ -58.3966898, -34.7760856 ] } },
{ "type": "Feature", "properties": { "fid": 625, "OSM_ID": 648802316, "CODE": 2001, "NAME": "Comando Lomas Norte", "LATITUD": -34.73831, "LONGITUD": -58.434328, "IDPROV": "06", "PROV": "Buenos Aires", "IDDPTO": "06490", "Partido": "Lomas de Zamora", "REDCODE": "064900614" }, "geometry": { "type": "Point", "coordinates": [ -58.43432854, -34.73831005 ] } }
]
}
